{"type": "FeatureCollection", "features": [{"geometry": {"type": "Point", "coordinates": [-58.6725, -34.5875]}, "type": "Feature", "id": 1, "properties": {"ufi": -979186, "admin_code": 203, "mgcc": 12, "name": "Buenos Aires", "attrib": 131, "id": 8338, "population": 12116379}}, {"geometry": {"type": "Point", "coordinates": [120.9822222, 14.6041667]}, "type": "Feature", "id": 3, "properties": {"ufi": -2437894, "admin_code": 203, "mgcc": 198, "name": "Manila", "attrib": 131, "id": 2616, "population": 10232924}}, {"geometry": {"type": "Point", "coordinates": [126.9997222, 37.5663889]}, "type": "Feature", "id": 5, "properties": {"ufi": -716583, "admin_code": 203, "mgcc": 133, "name": "Seoul", "attrib": 131, "id": 9181, "population": 9630586}}, {"geometry": {"type": "Point", "coordinates": [90.4086111, 23.7230556]}, "type": "Feature", "id": 8, "properties": {"ufi": -2737683, "admin_code": 203, "mgcc": 24, "name": "Dhaka", "attrib": 131, "id": 1350, "population": 8942250}}, {"geometry": {"type": "Point", "coordinates": [106.8294444, -6.1744444]}, "type": "Feature", "id": 9, "properties": {"ufi": -2679652, "admin_code": 203, "mgcc": 111, "name": "Jakarta", "attrib": 131, "id": 1663, "population": 8827879}}, {"geometry": {"type": "Point", "coordinates": [-99.1386111, 19.4341667]}, "type": "Feature", "id": 10, "properties": {"ufi": -1658079, "admin_code": 203, "mgcc": 166, "name": "Mexico", "attrib": 131, "id": 6382, "population": 8681360}}, {"geometry": {"type": "Point", "coordinates": [37.6155556, 55.7522222]}, "type": "Feature", "id": 11, "properties": {"ufi": -2960561, "admin_code": 203, "mgcc": 201, "name": "Moscow", "attrib": 131, "id": 931, "population": 8368162}}, {"geometry": {"type": "Point", "coordinates": [139.7513889, 35.685]}, "type": "Feature", "id": 13, "properties": {"ufi": -246227, "admin_code": 203, "mgcc": 121, "name": "Tokyo", "attrib": 131, "id": 10786, "population": 8240088}}, {"geometry": {"type": "Point", "coordinates": [-77.05, -12.05]}, "type": "Feature", "id": 14, "properties": {"ufi": -352647, "admin_code": 203, "mgcc": 185, "name": "Lima", "attrib": 131, "id": 10587, "population": 8113023}}, {"geometry": {"type": "Point", "coordinates": [31.25, 30.05]}, "type": "Feature", "id": 16, "properties": {"ufi": -290692, "admin_code": 203, "mgcc": 67, "name": "Cairo", "attrib": 131, "id": 10696, "population": 7937654}}, {"geometry": {"type": "Point", "coordinates": [51.4244444, 35.6719444]}, "type": "Feature", "id": 17, "properties": {"ufi": -3087341, "admin_code": 203, "mgcc": 116, "name": "Tehran", "attrib": 131, "id": 679, "population": 7893721}}, {"geometry": {"type": "Point", "coordinates": [-0.1166667, 51.5]}, "type": "Feature", "id": 18, "properties": {"ufi": -2601889, "admin_code": 203, "mgcc": 240, "name": "London", "attrib": 131, "id": 2066, "population": 7417688}}, {"geometry": {"type": "Point", "coordinates": [-74.0833333, 4.6]}, "type": "Feature", "id": 19, "properties": {"ufi": -578472, "admin_code": 203, "mgcc": 52, "name": "Bogota", "attrib": 129, "id": 10024, "population": 6837844}}, {"geometry": {"type": "Point", "coordinates": [116.3883333, 39.9288889]}, "type": "Feature", "id": 20, "properties": {"ufi": -1898541, "admin_code": 203, "mgcc": 46, "name": "Beijing", "attrib": 131, "id": 5560, "population": 6618987}}, {"geometry": {"type": "Point", "coordinates": [100.5166667, 13.75]}, "type": "Feature", "id": 21, "properties": {"ufi": -3250083, "admin_code": 203, "mgcc": 225, "name": "Bangkok", "attrib": 131, "id": 411, "population": 6610764}}, {"geometry": {"type": "Point", "coordinates": [15.315, -4.3297222]}, "type": "Feature", "id": 22, "properties": {"ufi": -2049111, "admin_code": 203, "mgcc": 45, "name": "Kinshasa", "attrib": 131, "id": 4418, "population": 6541264}}, {"geometry": {"type": "Point", "coordinates": [44.3938889, 33.3386111]}, "type": "Feature", "id": 24, "properties": {"ufi": -3103581, "admin_code": 203, "mgcc": 120, "name": "Baghdad", "attrib": 131, "id": 612, "population": 5772039}}, {"geometry": {"type": "Point", "coordinates": [-70.6666667, -33.45]}, "type": "Feature", "id": 31, "properties": {"ufi": -901202, "admin_code": 203, "mgcc": 47, "name": "Santiago", "attrib": 131, "id": 8627, "population": 4372781}}, {"geometry": {"type": "Point", "coordinates": [96.1666667, 16.7833333]}, "type": "Feature", "id": 32, "properties": {"ufi": -440623, "admin_code": 203, "mgcc": 28, "name": "Rangoon", "attrib": 131, "id": 10350, "population": 4344054}}, {"geometry": {"type": "Point", "coordinates": [46.7727778, 24.6408333]}, "type": "Feature", "id": 38, "properties": {"ufi": -3093009, "admin_code": 203, "mgcc": 203, "name": "Riyadh", "attrib": 131, "id": 663, "population": 3724075}}, {"geometry": {"type": "Point", "coordinates": [32.8644444, 39.9272222]}, "type": "Feature", "id": 46, "properties": {"ufi": -735338, "admin_code": 203, "mgcc": 234, "name": "Ankara", "attrib": 131, "id": 9126, "population": 3456076}}, {"geometry": {"type": "Point", "coordinates": [103.8558333, 1.2930556]}, "type": "Feature", "id": 47, "properties": {"ufi": -73635, "admin_code": 203, "mgcc": 213, "name": "Singapore", "attrib": 129, "id": 11895, "population": 3438556}}, {"geometry": {"type": "Point", "coordinates": [13.4, 52.5166667]}, "type": "Feature", "id": 52, "properties": {"ufi": -1746443, "admin_code": 203, "mgcc": 94, "name": "Berlin", "attrib": 131, "id": 5987, "population": 3274468}}, {"geometry": {"type": "Point", "coordinates": [-3.6833333, 40.4]}, "type": "Feature", "id": 54, "properties": {"ufi": -390625, "admin_code": 203, "mgcc": 215, "name": "Madrid", "attrib": 131, "id": 10481, "population": 3169379}}, {"geometry": {"type": "Point", "coordinates": [125.7547222, 39.0194444]}, "type": "Feature", "id": 59, "properties": {"ufi": -183459, "admin_code": 203, "mgcc": 130, "name": "Pyongyang", "attrib": 131, "id": 11286, "population": 2767885}}, {"geometry": {"type": "Point", "coordinates": [18.4166667, -33.9166667]}, "type": "Feature", "id": 62, "properties": {"ufi": -1217214, "admin_code": 203, "mgcc": 207, "name": "Cape Town", "attrib": 131, "id": 7586, "population": 2732971}}, {"geometry": {"type": "Point", "coordinates": [38.7, 9.0333333]}, "type": "Feature", "id": 63, "properties": {"ufi": -603097, "admin_code": 203, "mgcc": 73, "name": "Addis Ababa", "attrib": 131, "id": 9911, "population": 2716242}}, {"geometry": {"type": "Point", "coordinates": [30.5166667, 50.4333333]}, "type": "Feature", "id": 71, "properties": {"ufi": -1044367, "admin_code": 203, "mgcc": 241, "name": "Kiev", "attrib": 131, "id": 8191, "population": 2588395}}, {"geometry": {"type": "Point", "coordinates": [39.2833333, -6.8]}, "type": "Feature", "id": 73, "properties": {"ufi": -2562166, "admin_code": 203, "mgcc": 238, "name": "Dar es Salaam", "attrib": 131, "id": 2395, "population": 2489826}}, {"geometry": {"type": "Point", "coordinates": [-17.4380556, 14.6708333]}, "type": "Feature", "id": 75, "properties": {"ufi": -2266494, "admin_code": 203, "mgcc": 208, "name": "Dakar", "attrib": 131, "id": 3020, "population": 2476372}}, {"geometry": {"type": "Point", "coordinates": [12.4833333, 41.9]}, "type": "Feature", "id": 76, "properties": {"ufi": -126693, "admin_code": 203, "mgcc": 118, "name": "Rome", "attrib": 129, "id": 11417, "population": 2455596}}, {"geometry": {"type": "Point", "coordinates": [36.8166667, -1.2833333]}, "type": "Feature", "id": 77, "properties": {"ufi": -2258072, "admin_code": 203, "mgcc": 128, "name": "Nairobi", "attrib": 131, "id": 3039, "population": 2411939}}, {"geometry": {"type": "Point", "coordinates": [-82.3641667, 23.1319444]}, "type": "Feature", "id": 83, "properties": {"ufi": -1628751, "admin_code": 203, "mgcc": 57, "name": "Havana", "attrib": 131, "id": 6449, "population": 2343651}}, {"geometry": {"type": "Point", "coordinates": [13.2344444, -8.8383333]}, "type": "Feature", "id": 84, "properties": {"ufi": -2866283, "admin_code": 203, "mgcc": 10, "name": "Luanda", "attrib": 131, "id": 1129, "population": 2297182}}, {"geometry": {"type": "Point", "coordinates": [-69.9, 18.4666667]}, "type": "Feature", "id": 88, "properties": {"ufi": -3366242, "admin_code": 203, "mgcc": 65, "name": "Santo Domingo", "attrib": 131, "id": 306, "population": 2252446}}, {"geometry": {"type": "Point", "coordinates": [69.1833333, 34.5166667]}, "type": "Feature", "id": 90, "properties": {"ufi": -3378435, "admin_code": 203, "mgcc": 4, "name": "Kabul", "attrib": 131, "id": 290, "population": 2206295}}, {"geometry": {"type": "Point", "coordinates": [69.25, 41.3166667]}, "type": "Feature", "id": 93, "properties": {"ufi": -2579372, "admin_code": 203, "mgcc": 245, "name": "Tashkent", "attrib": 131, "id": 2319, "population": 2155382}}, {"geometry": {"type": "Point", "coordinates": [2.3333333, 48.8666667]}, "type": "Feature", "id": 95, "properties": {"ufi": -1456928, "admin_code": 203, "mgcc": 84, "name": "Paris", "attrib": 131, "id": 6803, "population": 2110420}}, {"geometry": {"type": "Point", "coordinates": [31.0447222, -17.8177778]}, "type": "Feature", "id": 105, "properties": {"ufi": -2312291, "admin_code": 203, "mgcc": 262, "name": "Harare", "attrib": 131, "id": 2889, "population": 1919683}}, {"geometry": {"type": "Point", "coordinates": [26.1, 44.4333333]}, "type": "Feature", "id": 106, "properties": {"ufi": -1153951, "admin_code": 203, "mgcc": 197, "name": "Bucharest", "attrib": 129, "id": 7826, "population": 1906827}}, {"geometry": {"type": "Point", "coordinates": [36.3, 33.5]}, "type": "Feature", "id": 108, "properties": {"ufi": -2541260, "admin_code": 203, "mgcc": 221, "name": "Damascus", "attrib": 131, "id": 2518, "population": 1861924}}, {"geometry": {"type": "Point", "coordinates": [44.2066667, 15.3547222]}, "type": "Feature", "id": 114, "properties": {"ufi": -3191442, "admin_code": 203, "mgcc": 259, "name": "Sanaa", "attrib": 131, "id": 502, "population": 1778894}}, {"geometry": {"type": "Point", "coordinates": [19.0833333, 47.5]}, "type": "Feature", "id": 115, "properties": {"ufi": -850553, "admin_code": 203, "mgcc": 109, "name": "Budapest", "attrib": 131, "id": 8719, "population": 1769459}}, {"geometry": {"type": "Point", "coordinates": [27.5666667, 53.9]}, "type": "Feature", "id": 116, "properties": {"ufi": -1946324, "admin_code": 203, "mgcc": 30, "name": "Minsk", "attrib": 131, "id": 4804, "population": 1769452}}, {"geometry": {"type": "Point", "coordinates": [-13.7122222, 9.5091667]}, "type": "Feature", "id": 117, "properties": {"ufi": -1178387, "admin_code": 203, "mgcc": 100, "name": "Conakry", "attrib": 131, "id": 7749, "population": 1767184}}, {"geometry": {"type": "Point", "coordinates": [3.0505556, 36.7630556]}, "type": "Feature", "id": 119, "properties": {"ufi": -458371, "admin_code": 203, "mgcc": 5, "name": "Algiers", "attrib": 131, "id": 10330, "population": 1742794}}, {"geometry": {"type": "Point", "coordinates": [-66.9166667, 10.5]}, "type": "Feature", "id": 120, "properties": {"ufi": -938457, "admin_code": 203, "mgcc": 247, "name": "Caracas", "attrib": 131, "id": 8431, "population": 1741408}}, {"geometry": {"type": "Point", "coordinates": [-0.2166667, 5.55]}, "type": "Feature", "id": 127, "properties": {"ufi": -2067935, "admin_code": 203, "mgcc": 89, "name": "Accra", "attrib": 131, "id": 4372, "population": 1661380}}, {"geometry": {"type": "Point", "coordinates": [-6.8361111, 34.0252778]}, "type": "Feature", "id": 129, "properties": {"ufi": -43376, "admin_code": 203, "mgcc": 159, "name": "Rabat", "attrib": 131, "id": 11927, "population": 1636603}}, {"geometry": {"type": "Point", "coordinates": [21.0, 52.25]}, "type": "Feature", "id": 131, "properties": {"ufi": -534433, "admin_code": 203, "mgcc": 189, "name": "Warsaw", "attrib": 131, "id": 10171, "population": 1607603}}, {"geometry": {"type": "Point", "coordinates": [16.3666667, 48.2]}, "type": "Feature", "id": 137, "properties": {"ufi": -1995499, "admin_code": 203, "mgcc": 15, "name": "Vienna", "attrib": 131, "id": 4670, "population": 1523593}}, {"geometry": {"type": "Point", "coordinates": [-78.5, -0.2166667]}, "type": "Feature", "id": 151, "properties": {"ufi": -932573, "admin_code": 203, "mgcc": 66, "name": "Quito", "attrib": 131, "id": 8455, "population": 1443905}}, {"geometry": {"type": "Point", "coordinates": [101.7, 3.1666667]}, "type": "Feature", "id": 158, "properties": {"ufi": -2403010, "admin_code": 203, "mgcc": 167, "name": "Kuala Lumpur", "attrib": 131, "id": 2732, "population": 1403395}}, {"geometry": {"type": "Point", "coordinates": [105.85, 21.0333333]}, "type": "Feature", "id": 159, "properties": {"ufi": -3714993, "admin_code": 203, "mgcc": 249, "name": "Hanoi", "attrib": 131, "id": 257, "population": 1396462}}, {"geometry": {"type": "Point", "coordinates": [-56.1708333, -34.8580556]}, "type": "Feature", "id": 169, "properties": {"ufi": -907764, "admin_code": 203, "mgcc": 244, "name": "Montevideo", "attrib": 131, "id": 8597, "population": 1347584}}, {"geometry": {"type": "Point", "coordinates": [35.9333333, 31.95]}, "type": "Feature", "id": 178, "properties": {"ufi": -970362, "admin_code": 203, "mgcc": 125, "name": "Amman", "attrib": 131, "id": 8355, "population": 1293164}}, {"geometry": {"type": "Point", "coordinates": [20.4680556, 44.8186111]}, "type": "Feature", "id": 182, "properties": {"ufi": -74897, "admin_code": 203, "mgcc": 260, "name": "Belgrade", "attrib": 131, "id": 11892, "population": 1285224}}, {"geometry": {"type": "Point", "coordinates": [13.18, 32.8925]}, "type": "Feature", "id": 191, "properties": {"ufi": -3178767, "admin_code": 203, "mgcc": 147, "name": "Tripoli", "attrib": 131, "id": 522, "population": 1269708}}, {"geometry": {"type": "Point", "coordinates": [44.5136111, 40.1811111]}, "type": "Feature", "id": 192, "properties": {"ufi": -2325645, "admin_code": 203, "mgcc": 8, "name": "Yerevan", "attrib": 131, "id": 2844, "population": 1267576}}, {"geometry": {"type": "Point", "coordinates": [28.2833333, -15.4166667]}, "type": "Feature", "id": 194, "properties": {"ufi": -2291861, "admin_code": 203, "mgcc": 261, "name": "Lusaka", "attrib": 131, "id": 2923, "population": 1264954}}, {"geometry": {"type": "Point", "coordinates": [18.05, 59.3333333]}, "type": "Feature", "id": 196, "properties": {"ufi": -2524279, "admin_code": 203, "mgcc": 219, "name": "Stockholm", "attrib": 131, "id": 2541, "population": 1251924}}, {"geometry": {"type": "Point", "coordinates": [-87.2166667, 14.1]}, "type": "Feature", "id": 198, "properties": {"ufi": -1130280, "admin_code": 203, "mgcc": 106, "name": "Tegucigalpa", "attrib": 131, "id": 7931, "population": 1249963}}, {"geometry": {"type": "Point", "coordinates": [28.2294444, -25.7069444]}, "type": "Feature", "id": 199, "properties": {"ufi": -1273769, "admin_code": 203, "mgcc": 207, "name": "Pretoria", "attrib": 129, "id": 7537, "population": 1249689}}, {"geometry": {"type": "Point", "coordinates": [32.5833333, 0.3166667]}, "type": "Feature", "id": 201, "properties": {"ufi": -1728891, "admin_code": 203, "mgcc": 239, "name": "Kampala", "attrib": 131, "id": 6089, "population": 1243984}}, {"geometry": {"type": "Point", "coordinates": [44.7908333, 41.725]}, "type": "Feature", "id": 204, "properties": {"ufi": -2330077, "admin_code": 203, "mgcc": 88, "name": "Tbilisi", "attrib": 131, "id": 2823, "population": 1240174}}, {"geometry": {"type": "Point", "coordinates": [49.8822222, 40.3952778]}, "type": "Feature", "id": 205, "properties": {"ufi": -2705195, "admin_code": 203, "mgcc": 6, "name": "Baku", "attrib": 131, "id": 1406, "population": 1235362}}, {"geometry": {"type": "Point", "coordinates": [32.5341667, 15.5880556]}, "type": "Feature", "id": 206, "properties": {"ufi": -1987, "admin_code": 203, "mgcc": 217, "name": "Khartoum", "attrib": 129, "id": 11999, "population": 1228840}}, {"geometry": {"type": "Point", "coordinates": [45.3666667, 2.0666667]}, "type": "Feature", "id": 211, "properties": {"ufi": -3227437, "admin_code": 203, "mgcc": 214, "name": "Mogadishu", "attrib": 131, "id": 447, "population": 1208769}}, {"geometry": {"type": "Point", "coordinates": [35.5097222, 33.8719444]}, "type": "Feature", "id": 217, "properties": {"ufi": -801546, "admin_code": 203, "mgcc": 138, "name": "Beirut", "attrib": 131, "id": 8852, "population": 1170952}}, {"geometry": {"type": "Point", "coordinates": [15.2847222, -4.2591667]}, "type": "Feature", "id": 219, "properties": {"ufi": -2205356, "admin_code": 203, "mgcc": 44, "name": "Brazzaville", "attrib": 131, "id": 3146, "population": 1169918}}, {"geometry": {"type": "Point", "coordinates": [104.9166667, 11.55]}, "type": "Feature", "id": 220, "properties": {"ufi": -1033783, "admin_code": 203, "mgcc": 41, "name": "Phnom Penh", "attrib": 131, "id": 8234, "population": 1169796}}, {"geometry": {"type": "Point", "coordinates": [14.4666667, 50.0833333]}, "type": "Feature", "id": 221, "properties": {"ufi": -553173, "admin_code": 203, "mgcc": 75, "name": "Prague", "attrib": 131, "id": 10125, "population": 1169758}}, {"geometry": {"type": "Point", "coordinates": [11.5166667, 3.8666667]}, "type": "Feature", "id": 224, "properties": {"ufi": -3160026, "admin_code": 203, "mgcc": 50, "name": "Yaounde", "attrib": 131, "id": 541, "population": 1154362}}, {"geometry": {"type": "Point", "coordinates": [-86.2683333, 12.1508333]}, "type": "Feature", "id": 227, "properties": {"ufi": -1113265, "admin_code": 203, "mgcc": 181, "name": "Managua", "attrib": 131, "id": 7989, "population": 1145975}}, {"geometry": {"type": "Point", "coordinates": [-90.5269444, 14.6211111]}, "type": "Feature", "id": 233, "properties": {"ufi": -1133206, "admin_code": 203, "mgcc": 99, "name": "Guatemala", "attrib": 131, "id": 7919, "population": 1128791}}, {"geometry": {"type": "Point", "coordinates": [-72.335, 18.5391667]}, "type": "Feature", "id": 238, "properties": {"ufi": -70311, "admin_code": 203, "mgcc": 103, "name": "Port-au-Prince", "attrib": 131, "id": 11900, "population": 1119014}}, {"geometry": {"type": "Point", "coordinates": [32.5891667, -25.9652778]}, "type": "Feature", "id": 241, "properties": {"ufi": -319029, "admin_code": 203, "mgcc": 168, "name": "Maputo", "attrib": 131, "id": 10641, "population": 1113974}}, {"geometry": {"type": "Point", "coordinates": [12.5833333, 55.6666667]}, "type": "Feature", "id": 248, "properties": {"ufi": -2745636, "admin_code": 203, "mgcc": 61, "name": "Copenhagen", "attrib": 131, "id": 1291, "population": 1094421}}, {"geometry": {"type": "Point", "coordinates": [23.3166667, 42.6833333]}, "type": "Feature", "id": 250, "properties": {"ufi": -838489, "admin_code": 203, "mgcc": 36, "name": "Sofia", "attrib": 131, "id": 8763, "population": 1088685}}, {"geometry": {"type": "Point", "coordinates": [-13.2341667, 8.49]}, "type": "Feature", "id": 258, "properties": {"ufi": -1315606, "admin_code": 203, "mgcc": 211, "name": "Freetown", "attrib": 131, "id": 7397, "population": 1051016}}, {"geometry": {"type": "Point", "coordinates": [-6.2488889, 53.3330556]}, "type": "Feature", "id": 266, "properties": {"ufi": -1502554, "admin_code": 203, "mgcc": 68, "name": "Baile Atha Cliath", "attrib": 131, "id": 6627, "population": 1018500}}, {"geometry": {"type": "Point", "coordinates": [4.3333333, 50.8333333]}, "type": "Feature", "id": 286, "properties": {"ufi": -1955538, "admin_code": 203, "mgcc": 22, "name": "Brussels", "attrib": 67, "id": 4768, "population": 981191}}, {"geometry": {"type": "Point", "coordinates": [-1.5247222, 12.3702778]}, "type": "Feature", "id": 292, "properties": {"ufi": -1721728, "admin_code": 203, "mgcc": 243, "name": "Ouagadougou", "attrib": 67, "id": 6114, "population": 962074}}, {"geometry": {"type": "Point", "coordinates": [-8.0, 12.65]}, "type": "Feature", "id": 302, "properties": {"ufi": -1064708, "admin_code": 203, "mgcc": 157, "name": "Bamako", "attrib": 67, "id": 8138, "population": 935428}}, {"geometry": {"type": "Point", "coordinates": [47.5166667, -18.9166667]}, "type": "Feature", "id": 313, "properties": {"ufi": -207091, "admin_code": 203, "mgcc": 148, "name": "Antananarivo", "attrib": 67, "id": 11272, "population": 895307}}, {"geometry": {"type": "Point", "coordinates": [-75.7, 45.4166667]}, "type": "Feature", "id": 325, "properties": {"ufi": -570760, "admin_code": 203, "mgcc": 40, "name": "Ottawa", "attrib": 65, "id": 10071, "population": 852069}}, {"geometry": {"type": "Point", "coordinates": [-68.15, -16.5]}, "type": "Feature", "id": 336, "properties": {"ufi": -693412, "admin_code": 203, "mgcc": 27, "name": "La Paz", "attrib": 67, "id": 9257, "population": 830498}}, {"geometry": {"type": "Point", "coordinates": [74.6002778, 42.8730556]}, "type": "Feature", "id": 338, "properties": {"ufi": -2331392, "admin_code": 203, "mgcc": 129, "name": "Bishkek", "attrib": 67, "id": 2815, "population": 824895}}, {"geometry": {"type": "Point", "coordinates": [106.9166667, 47.9166667]}, "type": "Feature", "id": 351, "properties": {"ufi": -2353539, "admin_code": 203, "mgcc": 153, "name": "Ulaanbaatar", "attrib": 67, "id": 2758, "population": 804249}}, {"geometry": {"type": "Point", "coordinates": [10.75, 59.9166667]}, "type": "Feature", "id": 357, "properties": {"ufi": -273837, "admin_code": 203, "mgcc": 176, "name": "Oslo", "attrib": 67, "id": 152, "population": 787447}}, {"geometry": {"type": "Point", "coordinates": [2.1166667, 13.5166667]}, "type": "Feature", "id": 375, "properties": {"ufi": -1084956, "admin_code": 203, "mgcc": 172, "name": "Niamey", "attrib": 67, "id": 8084, "population": 748647}}, {"geometry": {"type": "Point", "coordinates": [23.7333333, 37.9833333]}, "type": "Feature", "id": 376, "properties": {"ufi": -814876, "admin_code": 203, "mgcc": 98, "name": "Athens", "attrib": 67, "id": 8840, "population": 747269}}, {"geometry": {"type": "Point", "coordinates": [4.9166667, 52.35]}, "type": "Feature", "id": 379, "properties": {"ufi": -2140479, "admin_code": 203, "mgcc": 175, "name": "Amsterdam", "attrib": 65, "id": 3378, "population": 737949}}, {"geometry": {"type": "Point", "coordinates": [85.3166667, 27.7166667]}, "type": "Feature", "id": 386, "properties": {"ufi": -1022136, "admin_code": 203, "mgcc": 177, "name": "Kathmandu", "attrib": 67, "id": 8255, "population": 729022}}, {"geometry": {"type": "Point", "coordinates": [58.3833333, 37.95]}, "type": "Feature", "id": 389, "properties": {"ufi": -2557812, "admin_code": 203, "mgcc": 237, "name": "Asgabat", "attrib": 67, "id": 2428, "population": 727704}}, {"geometry": {"type": "Point", "coordinates": [28.8575, 47.0055556]}, "type": "Feature", "id": 400, "properties": {"ufi": -2276223, "admin_code": 203, "mgcc": 151, "name": "Chisinau", "attrib": 67, "id": 2971, "population": 709860}}, {"geometry": {"type": "Point", "coordinates": [24.1, 56.95]}, "type": "Feature", "id": 402, "properties": {"ufi": -3212216, "admin_code": 203, "mgcc": 139, "name": "Riga", "attrib": 67, "id": 475, "population": 706220}}, {"geometry": {"type": "Point", "coordinates": [10.1797222, 36.8027778]}, "type": "Feature", "id": 406, "properties": {"ufi": -731701, "admin_code": 203, "mgcc": 232, "name": "Tunis", "attrib": 67, "id": 9144, "population": 699693}}, {"geometry": {"type": "Point", "coordinates": [16.0, 45.8]}, "type": "Feature", "id": 413, "properties": {"ufi": -101579, "admin_code": 203, "mgcc": 108, "name": "Zagreb", "attrib": 67, "id": 11727, "population": 685473}}, {"geometry": {"type": "Point", "coordinates": [1.2227778, 6.1319444]}, "type": "Feature", "id": 424, "properties": {"ufi": -1497972, "admin_code": 203, "mgcc": 230, "name": "Lome", "attrib": 67, "id": 6652, "population": 676365}}, {"geometry": {"type": "Point", "coordinates": [18.5833333, 4.3666667]}, "type": "Feature", "id": 427, "properties": {"ufi": -1339562, "admin_code": 203, "mgcc": 56, "name": "Bangui", "attrib": 67, "id": 7243, "population": 669775}}, {"geometry": {"type": "Point", "coordinates": [9.45, 0.3833333]}, "type": "Feature", "id": 434, "properties": {"ufi": -1326612, "admin_code": 203, "mgcc": 87, "name": "Libreville", "attrib": 67, "id": 7341, "population": 661590}}, {"geometry": {"type": "Point", "coordinates": [-15.9752778, 18.0863889]}, "type": "Feature", "id": 435, "properties": {"ufi": -1402901, "admin_code": 203, "mgcc": 162, "name": "Nouakchott", "attrib": 67, "id": 6991, "population": 661413}}, {"geometry": {"type": "Point", "coordinates": [79.8477778, 6.9319444]}, "type": "Feature", "id": 438, "properties": {"ufi": -2214877, "admin_code": 203, "mgcc": 43, "name": "Colombo", "attrib": 67, "id": 3099, "population": 656094}}, {"geometry": {"type": "Point", "coordinates": [15.0491667, 12.1130556]}, "type": "Feature", "id": 470, "properties": {"ufi": -1101785, "admin_code": 203, "mgcc": 42, "name": "N'Djamena", "attrib": 67, "id": 8040, "population": 609619}}, {"geometry": {"type": "Point", "coordinates": [73.1666667, 33.7]}, "type": "Feature", "id": 479, "properties": {"ufi": -2762812, "admin_code": 203, "mgcc": 188, "name": "Islamabad", "attrib": 67, "id": 1238, "population": 601568}}, {"geometry": {"type": "Point", "coordinates": [-76.8, 18.0]}, "type": "Feature", "id": 491, "properties": {"ufi": -3752438, "admin_code": 203, "mgcc": 123, "name": "Kingston", "attrib": 67, "id": 192, "population": 590489}}, {"geometry": {"type": "Point", "coordinates": [68.7738889, 38.56]}, "type": "Feature", "id": 492, "properties": {"ufi": -2555530, "admin_code": 203, "mgcc": 226, "name": "Dushanbe", "attrib": 67, "id": 2456, "population": 590283}}, {"geometry": {"type": "Point", "coordinates": [121.45, 25.0166667]}, "type": "Feature", "id": 493, "properties": {"ufi": -2637882, "admin_code": 203, "mgcc": 236, "name": "T'ai-pei", "attrib": 67, "id": 1822, "population": 589701}}, {"geometry": {"type": "Point", "coordinates": [24.9341667, 60.1755556]}, "type": "Feature", "id": 503, "properties": {"ufi": -1364995, "admin_code": 203, "mgcc": 77, "name": "Helsingfors", "attrib": 67, "id": 7089, "population": 582615}}, {"geometry": {"type": "Point", "coordinates": [18.3833333, 43.85]}, "type": "Feature", "id": 506, "properties": {"ufi": -94996, "admin_code": 203, "mgcc": 26, "name": "Sarajevo", "attrib": 67, "id": 11774, "population": 581537}}, {"geometry": {"type": "Point", "coordinates": [-9.1333333, 38.7166667]}, "type": "Feature", "id": 530, "properties": {"ufi": -2167973, "admin_code": 203, "mgcc": 191, "name": "Lisbon", "attrib": 67, "id": 3212, "population": 559429}}, {"geometry": {"type": "Point", "coordinates": [-10.8047222, 6.3105556]}, "type": "Feature", "id": 546, "properties": {"ufi": -2134012, "admin_code": 203, "mgcc": 141, "name": "Monrovia", "attrib": 67, "id": 3400, "population": 550247}}, {"geometry": {"type": "Point", "coordinates": [43.1480556, 11.595]}, "type": "Feature", "id": 555, "properties": {"ufi": -2034412, "admin_code": 203, "mgcc": 62, "name": "Djibouti", "attrib": 67, "id": 4458, "population": 547090}}, {"geometry": {"type": "Point", "coordinates": [25.3166667, 54.6833333]}, "type": "Feature", "id": 557, "properties": {"ufi": -2620663, "admin_code": 203, "mgcc": 140, "name": "Vilnius", "attrib": 67, "id": 1870, "population": 543451}}, {"geometry": {"type": "Point", "coordinates": [54.3666667, 24.4666667]}, "type": "Feature", "id": 561, "properties": {"ufi": -782066, "admin_code": 203, "mgcc": 3, "name": "Abu Dhabi", "attrib": 67, "id": 8913, "population": 539827}}, {"geometry": {"type": "Point", "coordinates": [-57.6666667, -25.2666667]}, "type": "Feature", "id": 575, "properties": {"ufi": -910015, "admin_code": 203, "mgcc": 183, "name": "Asuncion", "attrib": 67, "id": 8581, "population": 525059}}, {"geometry": {"type": "Point", "coordinates": [-89.2030556, 13.7086111]}, "type": "Feature", "id": 611, "properties": {"ufi": -1148082, "admin_code": 203, "mgcc": 72, "name": "San Salvador", "attrib": 67, "id": 7860, "population": 504663}}, {"geometry": {"type": "Point", "coordinates": [33.7833333, -13.9833333]}, "type": "Feature", "id": 624, "properties": {"ufi": -1482799, "admin_code": 203, "mgcc": 155, "name": "Lilongwe", "attrib": 35, "id": 6702, "population": 499200}}, {"geometry": {"type": "Point", "coordinates": [4.3, 52.0833333]}, "type": "Feature", "id": 665, "properties": {"ufi": -2152921, "admin_code": 203, "mgcc": 175, "name": "The Hague", "attrib": 35, "id": 3276, "population": 465859}}, {"geometry": {"type": "Point", "coordinates": [113.55, 22.2]}, "type": "Feature", "id": 690, "properties": {"ufi": -1204094, "admin_code": 203, "mgcc": 150, "name": "Macau", "attrib": 35, "id": 7621, "population": 457137}}, {"geometry": {"type": "Point", "coordinates": [21.4333333, 42.0]}, "type": "Feature", "id": 703, "properties": {"ufi": -95841, "admin_code": 203, "mgcc": 156, "name": "Skopje", "attrib": 35, "id": 11768, "population": 452545}}, {"geometry": {"type": "Point", "coordinates": [-79.5333333, 8.9666667]}, "type": "Feature", "id": 732, "properties": {"ufi": -168008, "admin_code": 203, "mgcc": 190, "name": "Panama", "attrib": 35, "id": 11309, "population": 438213}}, {"geometry": {"type": "Point", "coordinates": [17.1166667, 48.15]}, "type": "Feature", "id": 751, "properties": {"ufi": -840999, "admin_code": 203, "mgcc": 142, "name": "Bratislava", "attrib": 35, "id": 8748, "population": 428809}}, {"geometry": {"type": "Point", "coordinates": [38.9333333, 15.3333333]}, "type": "Feature", "id": 803, "properties": {"ufi": -604780, "admin_code": 203, "mgcc": 71, "name": "Asmara", "attrib": 35, "id": 9906, "population": 399981}}, {"geometry": {"type": "Point", "coordinates": [24.7280556, 59.4338889]}, "type": "Feature", "id": 853, "properties": {"ufi": -2625660, "admin_code": 203, "mgcc": 70, "name": "Tallinn", "attrib": 35, "id": 1848, "population": 379043}}, {"geometry": {"type": "Point", "coordinates": [26.2, -29.1333333]}, "type": "Feature", "id": 856, "properties": {"ufi": -1211814, "admin_code": 203, "mgcc": 207, "name": "Bloemfontein", "attrib": 35, "id": 7593, "population": 378039}}, {"geometry": {"type": "Point", "coordinates": [19.8188889, 41.3275]}, "type": "Feature", "id": 916, "properties": {"ufi": -108649, "admin_code": 203, "mgcc": 7, "name": "Tirana", "attrib": 35, "id": 11683, "population": 353378}}, {"geometry": {"type": "Point", "coordinates": [-84.0833333, 9.9333333]}, "type": "Feature", "id": 971, "properties": {"ufi": -1109108, "admin_code": 203, "mgcc": 55, "name": "San Jose", "attrib": 35, "id": 8015, "population": 337167}}, {"geometry": {"type": "Point", "coordinates": [29.3580556, -3.3772222]}, "type": "Feature", "id": 996, "properties": {"ufi": 6034031, "admin_code": 203, "mgcc": 39, "name": "Bujumbura", "attrib": 35, "id": 12128, "population": 331657}}, {"geometry": {"type": "Point", "coordinates": [149.2166667, -35.2833333]}, "type": "Feature", "id": 1009, "properties": {"ufi": -1563952, "admin_code": 203, "mgcc": 13, "name": "Canberra", "attrib": 35, "id": 6514, "population": 327726}}, {"geometry": {"type": "Point", "coordinates": [147.1925, -9.4647222]}, "type": "Feature", "id": 1018, "properties": {"ufi": -2198538, "admin_code": 203, "mgcc": 192, "name": "Port Moresby", "attrib": 35, "id": 3154, "population": 324865}}, {"geometry": {"type": "Point", "coordinates": [51.5333333, 25.2866667]}, "type": "Feature", "id": 1037, "properties": {"ufi": -785169, "admin_code": 203, "mgcc": 195, "name": "Doha", "attrib": 35, "id": 8900, "population": 318502}}, {"geometry": {"type": "Point", "coordinates": [77.2, 28.6]}, "type": "Feature", "id": 1088, "properties": {"ufi": -2106102, "admin_code": 203, "mgcc": 113, "name": "New Delhi", "attrib": 33, "id": 3733, "population": 306381}}, {"geometry": {"type": "Point", "coordinates": [30.0605556, -1.9536111]}, "type": "Feature", "id": 1134, "properties": {"ufi": -2181358, "admin_code": 203, "mgcc": 202, "name": "Kigali", "attrib": 35, "id": 3186, "population": 298060}}, {"geometry": {"type": "Point", "coordinates": [-15.5833333, 11.85]}, "type": "Feature", "id": 1143, "properties": {"ufi": -1488412, "admin_code": 203, "mgcc": 194, "name": "Bissau", "attrib": 35, "id": 6679, "population": 296885}}, {"geometry": {"type": "Point", "coordinates": [71.4277778, 51.1811111]}, "type": "Feature", "id": 1186, "properties": {"ufi": -2334218, "admin_code": 203, "mgcc": 136, "name": "Astana", "attrib": 35, "id": 2787, "population": 288154}}, {"geometry": {"type": "Point", "coordinates": [14.5144444, 46.0552778]}, "type": "Feature", "id": 1342, "properties": {"ufi": -87271, "admin_code": 203, "mgcc": 210, "name": "Ljubljana", "attrib": 35, "id": 11825, "population": 258020}}, {"geometry": {"type": "Point", "coordinates": [2.6166667, 6.4833333]}, "type": "Feature", "id": 1495, "properties": {"ufi": -1335726, "admin_code": 203, "mgcc": 29, "name": "Porto-Novo", "attrib": 19, "id": 7258, "population": 231621}}, {"geometry": {"type": "Point", "coordinates": [-58.1666667, 6.8]}, "type": "Feature", "id": 1532, "properties": {"ufi": -919880, "admin_code": 203, "mgcc": 101, "name": "Georgetown", "attrib": 17, "id": 8510, "population": 227719}}, {"geometry": {"type": "Point", "coordinates": [-77.35, 25.0833333]}, "type": "Feature", "id": 1575, "properties": {"ufi": -1543832, "admin_code": 203, "mgcc": 23, "name": "Nassau", "attrib": 19, "id": 6557, "population": 222185}}, {"geometry": {"type": "Point", "coordinates": [17.0836111, -22.57]}, "type": "Feature", "id": 1583, "properties": {"ufi": -2587496, "admin_code": 203, "mgcc": 252, "name": "Windhoek", "attrib": 19, "id": 2285, "population": 220979}}, {"geometry": {"type": "Point", "coordinates": [-55.1666667, 5.8333333]}, "type": "Feature", "id": 1612, "properties": {"ufi": -914899, "admin_code": 203, "mgcc": 179, "name": "Paramaribo", "attrib": 19, "id": 8531, "population": 217324}}, {"geometry": {"type": "Point", "coordinates": [-65.2591667, -19.0430556]}, "type": "Feature", "id": 1732, "properties": {"ufi": -701781, "admin_code": 203, "mgcc": 27, "name": "Sucre", "attrib": 19, "id": 9236, "population": 204204}}, {"geometry": {"type": "Point", "coordinates": [25.9119444, -24.6463889]}, "type": "Feature", "id": 1828, "properties": {"ufi": -1397372, "admin_code": 203, "mgcc": 20, "name": "Gaborone", "attrib": 19, "id": 7025, "population": 194999}}, {"geometry": {"type": "Point", "coordinates": [102.6, 17.9666667]}, "type": "Feature", "id": 1844, "properties": {"ufi": -2669740, "admin_code": 203, "mgcc": 137, "name": "Vientiane", "attrib": 19, "id": 1777, "population": 194155}}, {"geometry": {"type": "Point", "coordinates": [-5.2833333, 6.8166667]}, "type": "Feature", "id": 1944, "properties": {"ufi": -2129107, "admin_code": 203, "mgcc": 119, "name": "Yamoussoukro", "attrib": 19, "id": 3411, "population": 185556}}, {"geometry": {"type": "Point", "coordinates": [178.4166667, -18.1333333]}, "type": "Feature", "id": 2036, "properties": {"ufi": -1195133, "admin_code": 203, "mgcc": 78, "name": "Suva", "attrib": 19, "id": 7670, "population": 177296}}, {"geometry": {"type": "Point", "coordinates": [27.4833333, -29.3166667]}, "type": "Feature", "id": 2090, "properties": {"ufi": -1405824, "admin_code": 203, "mgcc": 145, "name": "Maseru", "attrib": 19, "id": 6985, "population": 173700}}, {"geometry": {"type": "Point", "coordinates": [7.5333333, 9.0833333]}, "type": "Feature", "id": 2197, "properties": {"ufi": -1997013, "admin_code": 203, "mgcc": 174, "name": "Abuja", "attrib": 19, "id": 4663, "population": 165741}}, {"geometry": {"type": "Point", "coordinates": [174.7833333, -41.3]}, "type": "Feature", "id": 2205, "properties": {"ufi": -1521348, "admin_code": 203, "mgcc": 182, "name": "Wellington", "attrib": 19, "id": 6572, "population": 165091}}, {"geometry": {"type": "Point", "coordinates": [50.5830556, 26.2361111]}, "type": "Feature", "id": 2443, "properties": {"ufi": -784833, "admin_code": 203, "mgcc": 18, "name": "Manama", "attrib": 19, "id": 8905, "population": 149927}}, {"geometry": {"type": "Point", "coordinates": [57.5, -20.1666667]}, "type": "Feature", "id": 2555, "properties": {"ufi": -1355419, "admin_code": 203, "mgcc": 160, "name": "Port Louis", "attrib": 19, "id": 7138, "population": 143786}}, {"geometry": {"type": "Point", "coordinates": [55.4666667, -20.8666667]}, "type": "Feature", "id": 2582, "properties": {"ufi": -1331362, "admin_code": 203, "mgcc": 196, "name": "Saint-Denis", "attrib": 19, "id": 7316, "population": 142562}}, {"geometry": {"type": "Point", "coordinates": [7.4666667, 46.9166667]}, "type": "Feature", "id": 2931, "properties": {"ufi": -2551235, "admin_code": 203, "mgcc": 222, "name": "Bern", "attrib": 19, "id": 2500, "population": 122740}}, {"geometry": {"type": "Point", "coordinates": [79.9083333, 6.9027778]}, "type": "Feature", "id": 3048, "properties": {"ufi": -2224883, "admin_code": 203, "mgcc": 43, "name": "Sri Jayewardenepura Kotte", "attrib": 17, "id": 3084, "population": 118339}}, {"geometry": {"type": "Point", "coordinates": [-21.95, 64.15]}, "type": "Feature", "id": 3133, "properties": {"ufi": -2651804, "admin_code": 203, "mgcc": 110, "name": "Reykjavik", "attrib": 19, "id": 1802, "population": 114798}}, {"geometry": {"type": "Point", "coordinates": [8.6666667, 3.35]}, "type": "Feature", "id": 3183, "properties": {"ufi": -2065429, "admin_code": 203, "mgcc": 69, "name": "Malabo", "attrib": 19, "id": 44, "population": 112839}}, {"geometry": {"type": "Point", "coordinates": [-23.5166667, 14.9166667]}, "type": "Feature", "id": 3562, "properties": {"ufi": -1313468, "admin_code": 203, "mgcc": 58, "name": "Praia", "attrib": 11, "id": 7423, "population": 99437}}, {"geometry": {"type": "Point", "coordinates": [-59.6166667, 13.1]}, "type": "Feature", "id": 3574, "properties": {"ufi": -1393285, "admin_code": 203, "mgcc": 19, "name": "Bridgetown", "attrib": 11, "id": 7046, "population": 98930}}, {"geometry": {"type": "Point", "coordinates": [-61.0833333, 14.6]}, "type": "Feature", "id": 3655, "properties": {"ufi": -1554082, "admin_code": 203, "mgcc": 149, "name": "Fort-de-France", "attrib": 11, "id": 6541, "population": 96371}}, {"geometry": {"type": "Point", "coordinates": [166.45, -22.2666667]}, "type": "Feature", "id": 4004, "properties": {"ufi": -1713609, "admin_code": 203, "mgcc": 169, "name": "Noumea", "attrib": 9, "id": 6162, "population": 86401}}, {"geometry": {"type": "Point", "coordinates": [73.5, 4.1666667]}, "type": "Feature", "id": 4200, "properties": {"ufi": -1306876, "admin_code": 203, "mgcc": 165, "name": "Male", "attrib": 11, "id": 7498, "population": 81644}}, {"geometry": {"type": "Point", "coordinates": [6.13, 49.6116667]}, "type": "Feature", "id": 4353, "properties": {"ufi": -1736191, "admin_code": 203, "mgcc": 146, "name": "Luxembourg", "attrib": 11, "id": 6044, "population": 78761}}, {"geometry": {"type": "Point", "coordinates": [114.9333333, 4.8833333]}, "type": "Feature", "id": 4400, "properties": {"ufi": -1337176, "admin_code": 203, "mgcc": 38, "name": "Bandar Seri Begawan", "attrib": 11, "id": 7252, "population": 78030}}, {"geometry": {"type": "Point", "coordinates": [31.1333333, -26.3166667]}, "type": "Feature", "id": 4876, "properties": {"ufi": -1331673, "admin_code": 203, "mgcc": 258, "name": "Mbabane", "attrib": 9, "id": 7290, "population": 69001}}, {"geometry": {"type": "Point", "coordinates": [-52.3333333, 4.9333333]}, "type": "Feature", "id": 5523, "properties": {"ufi": -916118, "admin_code": 203, "mgcc": 76, "name": "Cayenne", "attrib": 11, "id": 8527, "population": 60540}}, {"geometry": {"type": "Point", "coordinates": [-61.0, 14.0]}, "type": "Feature", "id": 5544, "properties": {"ufi": -1313781, "admin_code": 203, "mgcc": 216, "name": "Castries", "attrib": 11, "id": 7412, "population": 60301}}, {"geometry": {"type": "Point", "coordinates": [89.6, 27.4833333]}, "type": "Feature", "id": 5556, "properties": {"ufi": -2211419, "admin_code": 203, "mgcc": 35, "name": "Thimphu", "attrib": 11, "id": 3108, "population": 60189}}, {"geometry": {"type": "Point", "coordinates": [43.2402778, -11.7041667]}, "type": "Feature", "id": 5557, "properties": {"ufi": -2087938, "admin_code": 203, "mgcc": 51, "name": "Moroni", "attrib": 11, "id": 4280, "population": 60171}}, {"geometry": {"type": "Point", "coordinates": [58.5933333, 23.6133333]}, "type": "Feature", "id": 5964, "properties": {"ufi": -787987, "admin_code": 203, "mgcc": 164, "name": "Muscat", "attrib": 9, "id": 8887, "population": 54764}}, {"geometry": {"type": "Point", "coordinates": [159.95, -9.4333333]}, "type": "Feature", "id": 5973, "properties": {"ufi": -1546211, "admin_code": 203, "mgcc": 31, "name": "Honiara", "attrib": 11, "id": 6547, "population": 54637}}, {"geometry": {"type": "Point", "coordinates": [6.7333333, 0.3333333]}, "type": "Feature", "id": 6064, "properties": {"ufi": -1312812, "admin_code": 203, "mgcc": 231, "name": "Sao Tome", "attrib": 11, "id": 7431, "population": 53305}}, {"geometry": {"type": "Point", "coordinates": [-16.5775, 13.4530556]}, "type": "Feature", "id": 6659, "properties": {"ufi": -1199434, "admin_code": 203, "mgcc": 86, "name": "Banjul", "attrib": 7, "id": 7665, "population": 46737}}, {"geometry": {"type": "Point", "coordinates": [33.3666667, 35.1666667]}, "type": "Feature", "id": 6754, "properties": {"ufi": -2738616, "admin_code": 203, "mgcc": 60, "name": "Nicosia", "attrib": 5, "id": 1316, "population": 45797}}, {"geometry": {"type": "Point", "coordinates": [45.2272222, -12.7794444]}, "type": "Feature", "id": 6763, "properties": {"ufi": -2087895, "admin_code": 203, "mgcc": 152, "name": "Mamoudzou", "attrib": 7, "id": 4282, "population": 45704}}, {"geometry": {"type": "Point", "coordinates": [-61.5166667, 10.65]}, "type": "Feature", "id": 6793, "properties": {"ufi": -1360612, "admin_code": 203, "mgcc": 223, "name": "Port-of-Spain", "attrib": 7, "id": 7103, "population": 45343}}, {"geometry": {"type": "Point", "coordinates": [-171.7333333, -13.8333333]}, "type": "Feature", "id": 8007, "properties": {"ufi": -1307163, "admin_code": 203, "mgcc": 257, "name": "Apia", "attrib": 7, "id": 7496, "population": 35875}}, {"geometry": {"type": "Point", "coordinates": [168.3166667, -17.7333333]}, "type": "Feature", "id": 8102, "properties": {"ufi": -2138939, "admin_code": 203, "mgcc": 173, "name": "Port-Vila", "attrib": 7, "id": 3386, "population": 35341}}, {"geometry": {"type": "Point", "coordinates": [47.9783333, 29.3697222]}, "type": "Feature", "id": 8556, "properties": {"ufi": -789552, "admin_code": 203, "mgcc": 135, "name": "Kuwait", "attrib": 7, "id": 8875, "population": 32583}}, {"geometry": {"type": "Point", "coordinates": [-149.5666667, -17.5333333]}, "type": "Feature", "id": 9028, "properties": {"ufi": -1310968, "admin_code": 203, "mgcc": 82, "name": "Papeete", "attrib": 7, "id": 7451, "population": 30161}}, {"geometry": {"type": "Point", "coordinates": [-81.3833333, 19.3]}, "type": "Feature", "id": 9178, "properties": {"ufi": -1187463, "admin_code": 203, "mgcc": 48, "name": "George Town", "attrib": 7, "id": 7681, "population": 29448}}, {"geometry": {"type": "Point", "coordinates": [-5.35, 36.1333333]}, "type": "Feature", "id": 9190, "properties": {"ufi": -1205055, "admin_code": 203, "mgcc": 90, "name": "Gibraltar", "attrib": 5, "id": 7603, "population": 29369}}, {"geometry": {"type": "Point", "coordinates": [-2.1, 49.1833333]}, "type": "Feature", "id": 9343, "properties": {"ufi": -1187128, "admin_code": 203, "mgcc": 122, "name": "Saint Helier", "attrib": 7, "id": 7708, "population": 28625}}, {"geometry": {"type": "Point", "coordinates": [172.9666667, 1.3166667]}, "type": "Feature", "id": 9781, "properties": {"ufi": -1352464, "admin_code": 203, "mgcc": 132, "name": "Bairiki", "attrib": 7, "id": 7184, "population": 26642}}, {"geometry": {"type": "Point", "coordinates": [-4.4833333, 54.15]}, "type": "Feature", "id": 10115, "properties": {"ufi": -1186980, "admin_code": 203, "mgcc": 112, "name": "Douglas", "attrib": 7, "id": 7715, "population": 25382}}, {"geometry": {"type": "Point", "coordinates": [-175.2, -21.1333333]}, "type": "Feature", "id": 10247, "properties": {"ufi": -2778310, "admin_code": 203, "mgcc": 229, "name": "Nuku`alofa", "attrib": 7, "id": 1146, "population": 24513}}, {"geometry": {"type": "Point", "coordinates": [-61.85, 17.1166667]}, "type": "Feature", "id": 10304, "properties": {"ufi": -1323514, "admin_code": 203, "mgcc": 2, "name": "Saint John's", "attrib": 7, "id": 7354, "population": 23521}}, {"geometry": {"type": "Point", "coordinates": [1.5166667, 42.5]}, "type": "Feature", "id": 10333, "properties": {"ufi": -1394439, "admin_code": 203, "mgcc": 9, "name": "Andorra la Vella", "attrib": 7, "id": 7036, "population": 22989}}, {"geometry": {"type": "Point", "coordinates": [55.45, -4.6166667]}, "type": "Feature", "id": 10335, "properties": {"ufi": -1322723, "admin_code": 203, "mgcc": 206, "name": "Victoria", "attrib": 5, "id": 7366, "population": 22970}}, {"geometry": {"type": "Point", "coordinates": [-70.0333333, 12.5166667]}, "type": "Feature", "id": 10484, "properties": {"ufi": -1307825, "admin_code": 203, "mgcc": 1, "name": "Oranjestad", "attrib": 5, "id": 7486, "population": 20698}}, {"geometry": {"type": "Point", "coordinates": [171.3833333, 7.1]}, "type": "Feature", "id": 10501, "properties": {"ufi": 227187, "admin_code": 203, "mgcc": 200, "name": "Majuro", "attrib": 7, "id": 12050, "population": 20468}}, {"geometry": {"type": "Point", "coordinates": [-61.4, 15.3]}, "type": "Feature", "id": 10523, "properties": {"ufi": -1352344, "admin_code": 203, "mgcc": 63, "name": "Roseau", "attrib": 7, "id": 7192, "population": 20018}}, {"geometry": {"type": "Point", "coordinates": [-61.2166667, 13.1333333]}, "type": "Feature", "id": 10660, "properties": {"ufi": -1204477, "admin_code": 203, "mgcc": 246, "name": "Kingstown", "attrib": 7, "id": 7614, "population": 17591}}, {"geometry": {"type": "Point", "coordinates": [-6.7666667, 62.0166667]}, "type": "Feature", "id": 10687, "properties": {"ufi": -2752670, "admin_code": 203, "mgcc": 81, "name": "Torshavn", "attrib": 7, "id": 1274, "population": 17278}}, {"geometry": {"type": "Point", "coordinates": [-44.4308333, -16.2119444]}, "type": "Feature", "id": 10716, "properties": {"ufi": -631244, "admin_code": 203, "mgcc": 33, "name": "Brasilia de Minas", "attrib": 5, "id": 9784, "population": 16906}}, {"geometry": {"type": "Point", "coordinates": [-2.5333333, 49.45]}, "type": "Feature", "id": 10742, "properties": {"ufi": -1176826, "admin_code": 203, "mgcc": 92, "name": "Saint Peter Port", "attrib": 7, "id": 7753, "population": 16590}}, {"geometry": {"type": "Point", "coordinates": [-51.75, 64.1833333]}, "type": "Feature", "id": 10934, "properties": {"ufi": -2084615, "admin_code": 203, "mgcc": 93, "name": "Godthab", "attrib": 7, "id": 4302, "population": 14057}}, {"geometry": {"type": "Point", "coordinates": [-61.7166667, 16.0]}, "type": "Feature", "id": 11034, "properties": {"ufi": -1202432, "admin_code": 203, "mgcc": 96, "name": "Basse-Terre", "attrib": 7, "id": 7642, "population": 12937}}, {"geometry": {"type": "Point", "coordinates": [158.15, 6.9166667]}, "type": "Feature", "id": 11135, "properties": {"ufi": -3740223, "admin_code": 203, "mgcc": 80, "name": "Palikir", "attrib": 5, "id": 205, "population": 11589}}, {"geometry": {"type": "Point", "coordinates": [-62.7166667, 17.3]}, "type": "Feature", "id": 11146, "properties": {"ufi": -1358943, "admin_code": 203, "mgcc": 205, "name": "Basseterre", "attrib": 7, "id": 7127, "population": 11489}}, {"geometry": {"type": "Point", "coordinates": [134.4708333, 7.3405556]}, "type": "Feature", "id": 11193, "properties": {"ufi": -3738771, "admin_code": 203, "mgcc": 193, "name": "Koror", "attrib": 7, "id": 210, "population": 11072}}, {"geometry": {"type": "Point", "coordinates": [-159.7666667, -21.2]}, "type": "Feature", "id": 11260, "properties": {"ufi": -1204668, "admin_code": 203, "mgcc": 59, "name": "Avarua", "attrib": 7, "id": 7608, "population": 10474}}, {"geometry": {"type": "Point", "coordinates": [-64.6166667, 18.4166667]}, "type": "Feature", "id": 11398, "properties": {"ufi": -1305987, "admin_code": 203, "mgcc": 248, "name": "Road Town", "attrib": 7, "id": 7502, "population": 9091}}, {"geometry": {"type": "Point", "coordinates": [-88.7666667, 17.25]}, "type": "Feature", "id": 11445, "properties": {"ufi": -1148793, "admin_code": 203, "mgcc": 25, "name": "Belmopan", "attrib": 5, "id": 7846, "population": 8713}}, {"geometry": {"type": "Point", "coordinates": [14.5147222, 35.8997222]}, "type": "Feature", "id": 11634, "properties": {"ufi": -19310, "admin_code": 203, "mgcc": 163, "name": "Valletta", "attrib": 7, "id": 11948, "population": 6909}}, {"geometry": {"type": "Point", "coordinates": [-56.1833333, 46.7666667]}, "type": "Feature", "id": 11716, "properties": {"ufi": -1187328, "admin_code": 203, "mgcc": 204, "name": "Saint-Pierre", "attrib": 7, "id": 7683, "population": 5926}}, {"geometry": {"type": "Point", "coordinates": [9.5166667, 47.1333333]}, "type": "Feature", "id": 11767, "properties": {"ufi": -1187190, "admin_code": 203, "mgcc": 144, "name": "Vaduz", "attrib": 7, "id": 7695, "population": 5271}}, {"geometry": {"type": "Point", "coordinates": [179.2166667, -8.5166667]}, "type": "Feature", "id": 11768, "properties": {"ufi": -1322267, "admin_code": 203, "mgcc": 235, "name": "Funafuti", "attrib": 7, "id": 7375, "population": 5264}}, {"geometry": {"type": "Point", "coordinates": [-71.1333333, 21.4666667]}, "type": "Feature", "id": 11796, "properties": {"ufi": -1312165, "admin_code": 203, "mgcc": 227, "name": "Grand Turk", "attrib": 7, "id": 7434, "population": 5010}}, {"geometry": {"type": "Point", "coordinates": [-61.75, 12.05]}, "type": "Feature", "id": 11860, "properties": {"ufi": -1202232, "admin_code": 203, "mgcc": 91, "name": "Saint George's", "attrib": 7, "id": 7648, "population": 4345}}, {"geometry": {"type": "Point", "coordinates": [12.4666667, 43.9166667]}, "type": "Feature", "id": 11862, "properties": {"ufi": -127864, "admin_code": 203, "mgcc": 212, "name": "San Marino", "attrib": 7, "id": 11402, "population": 4337}}, {"geometry": {"type": "Point", "coordinates": [31.2, -26.4666667]}, "type": "Feature", "id": 11874, "properties": {"ufi": -1331600, "admin_code": 203, "mgcc": 258, "name": "Lobamba", "attrib": 7, "id": 7295, "population": 4243}}, {"geometry": {"type": "Point", "coordinates": [-57.85, -51.7]}, "type": "Feature", "id": 12111, "properties": {"ufi": -1176538, "admin_code": 203, "mgcc": 79, "name": "Stanley", "attrib": 7, "id": 7754, "population": 2121}}, {"geometry": {"type": "Point", "coordinates": [-5.7166667, -15.9333333]}, "type": "Feature", "id": 12186, "properties": {"ufi": -1205453, "admin_code": 203, "mgcc": 209, "name": "Jamestown", "attrib": 7, "id": 7601, "population": 1526}}, {"geometry": {"type": "Point", "coordinates": [7.4166667, 43.7333333]}, "type": "Feature", "id": 12202, "properties": {"ufi": -1451964, "admin_code": 203, "mgcc": 158, "name": "Monaco", "attrib": 5, "id": 6831, "population": 1448}}, {"geometry": {"type": "Point", "coordinates": [15.6333333, 78.2166667]}, "type": "Feature", "id": 12262, "properties": {"ufi": -2463292, "admin_code": 203, "mgcc": 218, "name": "Longyearbyen", "attrib": 7, "id": 2568, "population": 1104}}, {"geometry": {"type": "Point", "coordinates": [-64.7838889, 32.2941667]}, "type": "Feature", "id": 12277, "properties": {"ufi": -1394089, "admin_code": 203, "mgcc": 21, "name": "Hamilton", "attrib": 7, "id": 7038, "population": 974}}, {"geometry": {"type": "Point", "coordinates": [105.7166667, -10.4166667]}, "type": "Feature", "id": 12280, "properties": {"ufi": -779059, "admin_code": 203, "mgcc": 134, "name": "Flying Fish Cove", "attrib": 7, "id": 8948, "population": 931}}, {"geometry": {"type": "Point", "coordinates": [-63.05, 18.2166667]}, "type": "Feature", "id": 12295, "properties": {"ufi": -1393191, "admin_code": 203, "mgcc": 16, "name": "The Valley", "attrib": 5, "id": 7049, "population": 851}}, {"geometry": {"type": "Point", "coordinates": [-169.9166667, -19.0166667]}, "type": "Feature", "id": 12340, "properties": {"ufi": -1187196, "admin_code": 203, "mgcc": 170, "name": "Alofi", "attrib": 5, "id": 7694, "population": 588}}, {"geometry": {"type": "Point", "coordinates": [-130.0833333, -25.0666667]}, "type": "Feature", "id": 12444, "properties": {"ufi": -1307105, "admin_code": 203, "mgcc": 184, "name": "Adamstown", "attrib": 7, "id": 7497, "population": 43}}, {"geometry": {"type": "Point", "coordinates": [134.4833333, 7.3333333]}, "type": "Feature", "id": 12515, "properties": {"ufi": 226830, "admin_code": 203, "mgcc": 193, "name": "Koror", "attrib": 1, "id": 12413, "population": 0}}, {"geometry": {"type": "Point", "coordinates": [100.5166667, 13.75]}, "type": "Feature", "id": 12536, "properties": {"ufi": -3414440, "admin_code": 203, "mgcc": 225, "name": "Krung Thep", "attrib": 1, "id": 12192, "population": 0}}, {"geometry": {"type": "Point", "coordinates": [114.15, 22.2833333]}, "type": "Feature", "id": 12588, "properties": {"ufi": -1353149, "admin_code": 203, "mgcc": 104, "name": "Hong Kong", "attrib": 1, "id": 12285, "population": 0}}, {"geometry": {"type": "Point", "coordinates": [169.5333333, -0.8833333]}, "type": "Feature", "id": 12589, "properties": {"ufi": -1352731, "admin_code": 203, "mgcc": 132, "name": "Tarawa", "attrib": 1, "id": 12286, "population": 0}}, {"geometry": {"type": "Point", "coordinates": [-62.2166667, 16.7]}, "type": "Feature", "id": 12591, "properties": {"ufi": -1204294, "admin_code": 203, "mgcc": 154, "name": "Plymouth", "attrib": 1, "id": 12287, "population": 0}}, {"geometry": {"type": "Point", "coordinates": [-47.9166667, -15.7833333]}, "type": "Feature", "id": 12633, "properties": {"ufi": -631243, "admin_code": 203, "mgcc": 33, "name": "Brasilia", "attrib": 1, "id": 12322, "population": 0}}]}
